"id","title","lon","lat","description"
"11","Płock","52.52958999943304","19.682006835937504","Punkt 2 "
"12","Kalisz","51.72022261695932","18.072509765625004","Punkt 3 dla michała"
"13","Radiostacja","50.313352309327975","18.688763380050663","popularne miejsce w gliwicach"
"15","Łódź","51.75509018237818","19.46914672851563","Maks lak"
"17","Lotnisko w bydgoszczy","53.09701336633377","17.978782653808597","punk testowy na lotnisku"
